[{"level2":"1","state":"北京市","level":"二级甲等","feature":"无","long":115.757,"isYibao":"1","address":"昌平城区镇北环路","name":"北京市昌平区妇幼保健院","py":"bjscpqfybjy","city":"昌平区","lat":40.315000000000005},{"level2":"0","state":"北京市","level":"一级丙等","feature":"无","long":116.235,"isYibao":"1","address":"昌平区（安立路立水桥）天通苑东三区二号楼中汇医院","name":"北京中汇医院(北京中医药大学中汇医院)","py":"bjzhyybjzyydhzhyy","city":"昌平区","lat":40.86},{"level2":"0","state":"北京市","level":"二级乙等","feature":"消化内科、变态反应科、骨外科、五官、精神、普外","long":116.397,"isYibao":"0","address":"昌平区昌平南口镇新兴路8号","name":"铁道部南口机车车辆厂医院","py":"tdbnkjcclcyy","city":"昌平区","lat":40.74},{"level2":"1","state":"北京市","level":"二级甲等","feature":"无","long":115.944,"isYibao":"1","address":"昌平区城区镇东环路南段","name":"北京市昌平区中医院","py":"bjscpqzyy","city":"昌平区","lat":39.819},{"level2":"1","state":"北京市","level":"一级甲等","feature":"无","long":115.865,"isYibao":"0","address":"昌平区东门外","name":"北京市昌平区东关医院","py":"bjscpqdgyy","city":"昌平区","lat":39.903},{"level2":"0","state":"北京市","level":"其他","feature":"内科、外科、骨科、妇科、中医科、五官科、眼科、口腔科等","long":116.927,"isYibao":"1","address":"昌平区东小口医院","name":"北京北郊肿瘤医院(昌平东小口医院)","py":"bjbjzlyycpdxkyy","city":"昌平区","lat":40.072},{"level2":"0","state":"北京市","level":"其他","feature":"无","long":115.751,"isYibao":"1","address":"昌平区府学路","name":"中国政法大学校医院","py":"zgzfdhxyy","city":"昌平区","lat":39.58},{"level2":"1","state":"北京市","level":"二级甲等","feature":"无","long":117.038,"isYibao":"1","address":"昌平区鼓楼北街9号","name":"北京市昌平区医院(昌平区卫生院)","py":"bjscpqyycpqwsy","city":"昌平区","lat":40.370000000000005},{"level2":"0","state":"北京市","level":"其他","feature":"心内科、脑内科、小儿脑瘫科、中医科、西医内科、妇科、五官科","long":117.149,"isYibao":"0","address":"昌平区回龙观龙腾苑三区16号楼","name":"北京安达心脑病医院","py":"bjadxnbyy","city":"昌平区","lat":40.062000000000005},{"level2":"1","state":"北京市","level":"一级甲等","feature":"内科、外科、妇科、儿科、中医科、骨伤科、五官科、肛肠科、眼科、针灸科、理疗科、口腔科、亚健康及医疗美容科等","long":115.913,"isYibao":"1","address":"昌平区回龙观龙禧三街","name":"北京龙禧医院","py":"bjlxyy","city":"昌平区","lat":39.965},{"level2":"1","state":"北京市","level":"一级甲等","feature":"无","long":117.236,"isYibao":"1","address":"昌平区霍营","name":"北京市昌平区红十字会北郊医院","py":"bjscpqhszhbjyy","city":"昌平区","lat":40.49},{"level2":"0","state":"北京市","level":"一级乙等","feature":"无","long":116.44200000000001,"isYibao":"1","address":"昌平区马池口念头西","name":"北京首钢红冶钢厂职工医院","py":"bjsghygczgyy","city":"昌平区","lat":40.833},{"level2":"1","state":"北京市","level":"一级甲等","feature":"妇科科、肛肠科","long":116.003,"isYibao":"0","address":"昌平区南环路53号","name":"北京市二毛医院","py":"bjsemyy","city":"昌平区","lat":39.544000000000004},{"level2":"0","state":"北京市","level":"其他","feature":"无","long":117.02,"isYibao":"1","address":"昌平区南口镇东大街22号","name":"北京保温瓶工业公司职工医院","py":"bjbwpgygszgyy","city":"昌平区","lat":41.159},{"level2":"0","state":"北京市","level":"其他","feature":"无","long":116.06700000000001,"isYibao":"0","address":"昌平区南口镇南大街6号","name":"北京市平板玻璃工业公司职工医院","py":"bjspbblgygszgyy","city":"昌平区","lat":40.577},{"level2":"1","state":"北京市","level":"一级甲等","feature":"中西医结合骨伤科、老年病科","long":115.835,"isYibao":"1","address":"昌平区南口镇南辛路2号","name":"北京市昌平区南口医院","py":"bjscpqnkyy","city":"昌平区","lat":40.301},{"level2":"1","state":"北京市","level":"一级甲等","feature":"无","long":116.762,"isYibao":"1","address":"昌平区南口镇南辛路2号","name":"昌平南口农场职工医院(北京市南口农场职工医院)","py":"cpnknczgyybjsnknczgyy","city":"昌平区","lat":40.143},{"level2":"1","state":"北京市","level":"一级甲等","feature":"无","long":116.571,"isYibao":"1","address":"昌平区南口镇新兴路8号","name":"北京南口铁路医院","py":"bjnktlyy","city":"昌平区","lat":40.801},{"level2":"0","state":"北京市","level":"其他","feature":"针灸推拿科","long":117.138,"isYibao":" 专家门诊","address":"昌平区沙河镇","name":"北京针刀总医院","py":"bjzdzyy","city":"昌平区","lat":39.365},{"level2":"1","state":"北京市","level":"一级甲等","feature":"无","long":115.904,"isYibao":"0","address":"昌平区沙河镇","name":"北京沙河医院","py":"bjshyy","city":"昌平区","lat":39.406},{"level2":"0","state":"北京市","level":"二级乙等","feature":"无","long":116.533,"isYibao":"1","address":"昌平区沙河镇豆各庄1号","name":"北京市昌平区精神卫生保健院","py":"bjscpqjswsbjy","city":"昌平区","lat":40.654},{"level2":"0","state":"北京市","level":"一级丙等","feature":"无","long":117.205,"isYibao":"1","address":"昌平区沙河镇满井村西","name":"北京骨髓炎医院","py":"bjgsyyy","city":"昌平区","lat":39.654},{"level2":"1","state":"北京市","level":"一级甲等","feature":"无","long":115.613,"isYibao":"0","address":"昌平区沙河镇沙阳路24号","name":"北京首钢股份有限公司第一线材厂职工医院(首钢第一线材厂职工医院)","py":"bjsggfyxgsdyxcczgyysgdyxcczgyy","city":"昌平区","lat":39.666000000000004}]